"name","operator","lat","lon","sources","osm_id","wikidata_id","provider","region_code","facility_type","n_sources","ADMIN","ISO_A3","CONTINENT","SUBREGION","name_normalized","has_operator","in_both_sources","source_category","operator_norm","status","year","coord_confidence","cluster_id","address","source","note","osm_type","peeringdb_id"
"AWS Asia Pacific (Malaysia)","AWS",3.139,101.687,"Cloud Provider (AWS)","","","AWS","ap-southeast-5","cloud_region",1,"Malaysia","MYS","Asia","South-Eastern Asia","AWS Asia Pacific (Malaysia)",TRUE,FALSE,"Hyperscale Cloud","AWS",NA,NA,"source_native",NA,"Address not publicly disclosed",NA,NA,NA,NA
"Alibaba Cloud Malaysia (Kuala Lumpur)","Alibaba",3.142,101.69,"Cloud Provider (Alibaba)","","","Alibaba","ap-southeast-3","cloud_region",1,"Malaysia","MYS","Asia","South-Eastern Asia","Alibaba Cloud Malaysia (Kuala Lumpur)",TRUE,FALSE,"Hyperscale Cloud","Alibaba",NA,NA,"source_native",NA,"Address not publicly disclosed",NA,NA,NA,NA
"Azure Malaysia West","Azure",3.139,101.687,"Cloud Provider (Azure)","","","Azure","malaysiawest","cloud_region",1,"Malaysia","MYS","Asia","South-Eastern Asia","Azure Malaysia West",TRUE,FALSE,"Hyperscale Cloud","Azure",NA,NA,"source_native",NA,"Address not publicly disclosed",NA,NA,NA,NA
"Google Cloud asia-southeast3 (Malaysia)","GCP",3.14,101.688,"Cloud Provider (GCP)","","","GCP","asia-southeast3","cloud_region",1,"Malaysia","MYS","Asia","South-Eastern Asia","Google Cloud asia-southeast3 (Malaysia)",TRUE,FALSE,"Hyperscale Cloud","GCP",NA,NA,"source_native",NA,"Address not publicly disclosed",NA,NA,NA,NA
"IRIX DC",NA,1.7096888,110.3534142,"OpenStreetMap","13197364001","","","","physical_facility",1,"Malaysia","MYS","Asia","South-Eastern Asia","IRIX Data Center",FALSE,FALSE,"OSM Only","IRIX DC",NA,NA,"source_native",NA,"1438, Jln Sultan, 93050 Kuching, Sarawak, Malaysia",NA,NA,NA,NA
"Oracle Cloud Kuala Lumpur (kix)","Oracle",3.141,101.689,"Cloud Provider (Oracle)","","","Oracle","ap-kuala-lumpur-1","cloud_region",1,"Malaysia","MYS","Asia","South-Eastern Asia","Oracle Cloud Kuala Lumpur (kix)",TRUE,FALSE,"Hyperscale Cloud","Oracle",NA,NA,"source_native",NA,"Address not publicly disclosed",NA,NA,NA,NA
"Unnamed facility (OSM way 1432337885)",NA,1.7033833,103.4134036,"OpenStreetMap","1432337885","","","","physical_facility",1,"Malaysia","MYS","Asia","South-Eastern Asia","Unnamed facility (OSM way 1432337885)",FALSE,FALSE,"OSM Only","Unnamed facility (OSM way 1432337885)",NA,NA,"source_native","sedenak_cluster","PC36+JW, 82100 Kayu Ara Pasong, Johor, Malaysia",NA,NA,NA,NA
"Unnamed facility (OSM way 1432337898)",NA,1.6939827,103.4190473,"OpenStreetMap","1432337898","","","","physical_facility",1,"Malaysia","MYS","Asia","South-Eastern Asia","Unnamed facility (OSM way 1432337898)",FALSE,FALSE,"OSM Only","Unnamed facility (OSM way 1432337898)",NA,NA,"source_native","sedenak_cluster","MCV9+HJ Kayu Ara Pasong, Johor, Malaysia",NA,NA,NA,NA
"Unnamed facility (OSM way 1432337899)",NA,1.6921349,103.4123772,"OpenStreetMap","1432337899","","","","physical_facility",1,"Malaysia","MYS","Asia","South-Eastern Asia","Unnamed facility (OSM way 1432337899)",FALSE,FALSE,"OSM Only","Unnamed facility (OSM way 1432337899)",NA,NA,"source_native","sedenak_cluster","MCR6+VX Kayu Ara Pasong, Johor, Malaysia",NA,NA,NA,NA
"Unnamed facility (OSM way 1432337900)",NA,1.6930986,103.4179246,"OpenStreetMap","1432337900","","","","physical_facility",1,"Malaysia","MYS","Asia","South-Eastern Asia","Unnamed facility (OSM way 1432337900)",FALSE,FALSE,"OSM Only","Unnamed facility (OSM way 1432337900)",NA,NA,"source_native","sedenak_cluster","MCV9+65 Kayu Ara Pasong, Johor, Malaysia",NA,NA,NA,NA
"Unnamed facility (OSM way 1432337901)",NA,1.6923957,103.417064,"OpenStreetMap","1432337901","","","","physical_facility",1,"Malaysia","MYS","Asia","South-Eastern Asia","Unnamed facility (OSM way 1432337901)",FALSE,FALSE,"OSM Only","Unnamed facility (OSM way 1432337901)",NA,NA,"source_native","sedenak_cluster","MCR8+XR Kayu Ara Pasong, Johor, Malaysia",NA,NA,NA,NA
"Unnamed facility (OSM way 1432337902)",NA,1.6977265,103.4117312,"OpenStreetMap","1432337902","","","","physical_facility",1,"Malaysia","MYS","Asia","South-Eastern Asia","Unnamed facility (OSM way 1432337902)",FALSE,FALSE,"OSM Only","Unnamed facility (OSM way 1432337902)",NA,NA,"source_native","sedenak_cluster","MCX6+3M Kayu Ara Pasong, Johor, Malaysia",NA,NA,NA,NA
"Unnamed facility (OSM way 1432337903)",NA,1.6984869,103.4125333,"OpenStreetMap","1432337903","","","","physical_facility",1,"Malaysia","MYS","Asia","South-Eastern Asia","Unnamed facility (OSM way 1432337903)",FALSE,FALSE,"OSM Only","Unnamed facility (OSM way 1432337903)",NA,NA,"source_native","sedenak_cluster","MCX7+92 Kayu Ara Pasong, Johor, Malaysia",NA,NA,NA,NA
"Unnamed facility (OSM way 1432337904)",NA,1.69994,103.4128608,"OpenStreetMap","1432337904","","","","physical_facility",1,"Malaysia","MYS","Asia","South-Eastern Asia","Unnamed facility (OSM way 1432337904)",FALSE,FALSE,"OSM Only","Unnamed facility (OSM way 1432337904)",NA,NA,"source_native","sedenak_cluster","17, Jalan Digital 7, Sedenak Technology Park, 81000 Kulai, Johor Darul Ta'zim, Malaysia",NA,NA,NA,NA
"Unnamed facility (OSM way 1432337905)",NA,1.6975615,103.4076651,"OpenStreetMap","1432337905","","","","physical_facility",1,"Malaysia","MYS","Asia","South-Eastern Asia","Unnamed facility (OSM way 1432337905)",FALSE,FALSE,"OSM Only","Unnamed facility (OSM way 1432337905)",NA,NA,"source_native","sedenak_cluster","MCX5+23 Kayu Ara Pasong, Johor, Malaysia",NA,NA,NA,NA
"Unnamed facility (OSM way 1432337908)",NA,1.7046043,103.412434,"OpenStreetMap","1432337908","","","","physical_facility",1,"Malaysia","MYS","Asia","South-Eastern Asia","Unnamed facility (OSM way 1432337908)",FALSE,FALSE,"OSM Only","Unnamed facility (OSM way 1432337908)",NA,NA,"source_native","sedenak_cluster","PC36+JW, 82100 Kayu Ara Pasong, Johor, Malaysia",NA,NA,NA,NA
"Unnamed facility (OSM way 1432337909)",NA,1.7029916,103.4103001,"OpenStreetMap","1432337909","","","","physical_facility",1,"Malaysia","MYS","Asia","South-Eastern Asia","Unnamed facility (OSM way 1432337909)",FALSE,FALSE,"OSM Only","Unnamed facility (OSM way 1432337909)",NA,NA,"source_native","sedenak_cluster","PC36+54 Kayu Ara Pasong, Johor, Malaysia",NA,NA,NA,NA
"Unnamed facility (OSM way 1432337910)",NA,1.7019183,103.4089932,"OpenStreetMap","1432337910","","","","physical_facility",1,"Malaysia","MYS","Asia","South-Eastern Asia","Unnamed facility (OSM way 1432337910)",FALSE,FALSE,"OSM Only","Unnamed facility (OSM way 1432337910)",NA,NA,"source_native","sedenak_cluster","PC25+QH Kayu Ara Pasong, Johor, Malaysia",NA,NA,NA,NA
"Unnamed facility (OSM way 1432337911)",NA,1.6988159,103.4106934,"OpenStreetMap","1432337911","","","","physical_facility",1,"Malaysia","MYS","Asia","South-Eastern Asia","Unnamed facility (OSM way 1432337911)",FALSE,FALSE,"OSM Only","Unnamed facility (OSM way 1432337911)",NA,NA,"source_native","sedenak_cluster","MCX6+G7 Kayu Ara Pasong, Johor, Malaysia",NA,NA,NA,NA
"Unnamed facility (OSM way 1432337912)",NA,1.6942378,103.4208341,"OpenStreetMap","1432337912","","","","physical_facility",1,"Malaysia","MYS","Asia","South-Eastern Asia","Unnamed facility (OSM way 1432337912)",FALSE,FALSE,"OSM Only","Unnamed facility (OSM way 1432337912)",NA,NA,"source_native","sedenak_cluster","MCVC+VQ, 82100 Kayu Ara Pasong, Johor, Malaysia",NA,NA,NA,NA
"Unnamed facility (OSM way 1448536198)",NA,3.2230752,101.5202934,"OpenStreetMap","1448536198","","","","physical_facility",1,"Malaysia","MYS","Asia","South-Eastern Asia","Unnamed facility (OSM way 1448536198)",FALSE,FALSE,"OSM Only","Unnamed facility (OSM way 1448536198)",NA,NA,"source_native",NA,"6GFC+64 Sungai Buloh, Selangor, Malaysia",NA,NA,NA,NA
"Bridge Data Centres MY02 (Cyberjaya)","Bridge Data Centres",2.9171543,101.6619044,"Trade Press (NER extraction)",NA,NA,NA,NA,"physical_facility",1,"Malaysia","MYS","Asia","South-Eastern Asia","Bridge Data Centres MY02 (Cyberjaya)",TRUE,FALSE,"Trade Press","Bridge Data Centres","Unknown",2024,"geocoded",NA,"7118, Jalan Impact, Cyberjaya, 63000 Cyberjaya, Selangor, Malaysia",NA,NA,NA,NA
"Bridge Data Centres (Johor)","Bridge Data Centres",1.68,103.43,"Trade Press (NER extraction)",NA,NA,NA,NA,"physical_facility",1,"Malaysia","MYS","Asia","South-Eastern Asia","Bridge Data Centres (Johor)",TRUE,FALSE,"Trade Press","Bridge Data Centres","Unknown",2024,"manual_correction",NA,"MCJJ+22 Kayu Ara Pasong, Johor, Malaysia",NA,NA,NA,NA
"AIMS Bangunan AIMS / KL2 (Kuala Lumpur)","AIMS",3.1493525,101.7060731,"Trade Press (NER extraction)",NA,NA,NA,NA,"physical_facility",1,"Malaysia","MYS","Asia","South-Eastern Asia","AIMS Bangunan AIMS / KL2 (Kuala Lumpur)",TRUE,FALSE,"Trade Press","AIMS","Operational",2024,"geocoded",NA,"Lot 17.01, 17th Floor, MCB Plaza 6, Changkat Raja Chulan, 50200, Kuala Lumpur, WP Kuala Lumpur, Bukit Ceylon, 50200 Kuala Lumpur, Federal Territory of Kuala Lumpur, Malaysia",NA,NA,NA,NA
"AIMS Cyberjaya Block 2","AIMS",2.938,101.657,"Trade Press (NER extraction); OpenStreetMap",NA,NA,NA,NA,"physical_facility",2,"Malaysia","MYS","Asia","South-Eastern Asia","AIMS Cyberjaya Block 2",TRUE,FALSE,"Trade Press","AIMS","Unknown",2025,"manual_correction",NA,"WMQ4+6Q Cyberjaya, Selangor, Malaysia",NA,NA,NA,NA
"NTT Gelang Patah Campus (Johor)","NTT DATA",1.4515013,103.5970167,"Trade Press (NER extraction)",NA,NA,NA,NA,"physical_facility",1,"Malaysia","MYS","Asia","South-Eastern Asia","NTT Gelang Patah Campus (Johor)",TRUE,FALSE,"Trade Press","NTT DATA","Under Construction",2027,"geocoded",NA,"Jalan Skudai - Gelang Patah, 81550 Gelang Patah, Johor Darul Ta'zim, Malaysia",NA,NA,NA,NA
"NTT Cyberjaya CBJ6","NTT DATA",2.9272384,101.6588555,"Trade Press (NER extraction)",NA,NA,NA,NA,"physical_facility",1,"Malaysia","MYS","Asia","South-Eastern Asia","NTT Cyberjaya CBJ6",TRUE,FALSE,"Trade Press","NTT DATA","Operational",2024,"geocoded",NA,"43000, Persiaran APEC, Cyberjaya, 63000 Cyberjaya, Selangor, Malaysia",NA,NA,NA,NA
"YTL Green Data Center Park (Kulai, Johor)","YTL Power",1.6205686,103.5215847,"Trade Press (NER extraction)",NA,NA,NA,NA,"physical_facility",1,"Malaysia","MYS","Asia","South-Eastern Asia","YTL Green Data Center Park (Kulai, Johor)",TRUE,FALSE,"Trade Press","YTL Power","Unknown",2023,"geocoded",NA,"JGCC+6J Gunung Pulai Recreational Forest, Pekan Nanas, Johor Darul Ta'zim, Malaysia",NA,NA,NA,NA
"Telekom Malaysia KVDC (Cyberjaya)","Telekom Malaysia",2.9320918,101.6570765,"Trade Press (NER extraction); OpenStreetMap",NA,NA,NA,NA,"physical_facility",2,"Malaysia","MYS","Asia","South-Eastern Asia","Telekom Malaysia KVDC (Cyberjaya)",TRUE,FALSE,"Trade Press","Telekom Malaysia","Operational",2019,"geocoded",NA,"Kompleks TM Cyberjaya, Cyberjaya, 63000 Cyberjaya, Selangor, Malaysia",NA,NA,NA,NA
"Telekom Malaysia IPDC (Iskandar Puteri)","Telekom Malaysia",1.4349479,103.5984284,"Trade Press (NER extraction)",NA,NA,NA,NA,"physical_facility",1,"Malaysia","MYS","Asia","South-Eastern Asia","Telekom Malaysia IPDC (Iskandar Puteri)",TRUE,FALSE,"Trade Press","Telekom Malaysia","Unknown",2024,"geocoded",NA,"CHPX+6G, Kampung Baharu, 81550 Gelang Patah, Johor, Malaysia",NA,NA,NA,NA
"TM-Nxera JV Campus (Johor)","TM / Nxera",1.434379,103.620491,"Trade Press (NER extraction)",NA,NA,NA,NA,"physical_facility",1,"Malaysia","MYS","Asia","South-Eastern Asia","TM-Nxera JV Campus (Johor)",TRUE,FALSE,"Trade Press","Telekom Malaysia / Nxera","Unknown",2024,"geocoded",NA,"CJMC+Q5, 79100 Gelang Patah, Johor, Malaysia",NA,NA,NA,NA
"Area Group Campus (Kedah)","Area Group",6.5058846,100.4250382,"Trade Press (NER extraction)",NA,NA,NA,NA,"physical_facility",1,"Malaysia","MYS","Asia","South-Eastern Asia","Area Group Campus (Kedah)",TRUE,FALSE,"Trade Press","Area Group","Under Construction",2024,"geocoded",NA,"GC4G+92 Bukit Kayu Hitam, Kedah, Malaysia",NA,NA,NA,NA
"AirTrunk JHB1 (Johor)","AirTrunk",1.4798575,103.7642576,"Trade Press (NER extraction)",NA,NA,NA,NA,"physical_facility",1,"Malaysia","MYS","Asia","South-Eastern Asia","AirTrunk JHB1 (Johor)",TRUE,FALSE,"Trade Press","AirTrunk","Operational",2024,"geocoded",NA,"Chak number 483 jb tehsil shorkot district jhang, Taman Abad, 80300 Johor Bahru, Johor, Malaysia",NA,NA,NA,NA
"AirTrunk JHB2 (Johor)","AirTrunk",1.43,103.6,"Trade Press (NER extraction)",NA,NA,NA,NA,"physical_facility",1,"Malaysia","MYS","Asia","South-Eastern Asia","AirTrunk JHB2 (Johor)",TRUE,FALSE,"Trade Press","AirTrunk","Planned",2025,"manual_correction",NA,"CJJ2+22 Gelang Patah, Johor, Malaysia",NA,NA,NA,NA
"Vantage Cyberjaya Campus 2","Vantage Data Centers",2.9041534,101.6516027,"Trade Press (NER extraction)",NA,NA,NA,NA,"physical_facility",1,"Malaysia","MYS","Asia","South-Eastern Asia","Vantage Cyberjaya Campus 2",TRUE,FALSE,"Trade Press","Vantage Data Centers","Under Construction",2024,"geocoded",NA,"15, Jalan Cyber Point 4, Cyber 8, 63000 Cyberjaya, Selangor, Malaysia",NA,NA,NA,NA
"Vantage / Yondr Sedenak (Johor)","Vantage / Yondr",1.6981517,103.4085948,"Trade Press (NER extraction)",NA,NA,NA,NA,"physical_facility",1,"Malaysia","MYS","Asia","South-Eastern Asia","Vantage / Yondr Sedenak (Johor)",TRUE,FALSE,"Trade Press","Vantage / Yondr","Under Development",2025,"geocoded",NA,"MCX5+7C Kayu Ara Pasong, Johor, Malaysia",NA,NA,NA,NA
"DayOne (Johor)","DayOne",1.4343363,103.5996679,"Trade Press (NER extraction)",NA,NA,NA,NA,"physical_facility",1,"Malaysia","MYS","Asia","South-Eastern Asia","DayOne (Johor)",TRUE,FALSE,"Trade Press","DayOne","Unknown",NA,"geocoded",NA,"11, Jln Teknologi Perintis 1/2, Kampung Baharu, 81550 Gelang Patah, Johor Darul Ta'zim, Malaysia",NA,NA,NA,NA
"EdgeConneX Cyberjaya","EdgeConneX",2.921318,101.6559349,"Trade Press (NER extraction)",NA,NA,NA,NA,"physical_facility",1,"Malaysia","MYS","Asia","South-Eastern Asia","EdgeConneX Cyberjaya",TRUE,FALSE,"Trade Press","EdgeConneX","Unknown",NA,"geocoded",NA,"WMC4+G9 Cyberjaya, Selangor, Malaysia",NA,NA,NA,NA
"EdgeConneX Johor","EdgeConneX",1.4798575,103.7642576,"Trade Press (NER extraction)",NA,NA,NA,NA,"physical_facility",1,"Malaysia","MYS","Asia","South-Eastern Asia","EdgeConneX Johor",TRUE,FALSE,"Trade Press","EdgeConneX","Unknown",NA,"geocoded",NA,"Chak number 483 jb tehsil shorkot district jhang, Taman Abad, 80300 Johor Bahru, Johor, Malaysia",NA,NA,NA,NA
"EdgeConneX Bukit Jalil","EdgeConneX",3.0586745,101.6917068,"Trade Press (NER extraction)",NA,NA,NA,NA,"physical_facility",1,"Malaysia","MYS","Asia","South-Eastern Asia","EdgeConneX Bukit Jalil",TRUE,FALSE,"Trade Press","EdgeConneX","Unknown",NA,"geocoded",NA,"Ppa1m, Bukit Jalil, 57000 Kuala Lumpur, Wilayah Persekutuan Kuala Lumpur, Malaysia",NA,NA,NA,NA
"Princeton Digital Group JH1 (Johor)","Princeton Digital Group",1.6923009,103.4145192,"Trade Press (NER extraction)",NA,NA,NA,NA,"physical_facility",1,"Malaysia","MYS","Asia","South-Eastern Asia","Princeton Digital Group JH1 (Johor)",TRUE,FALSE,"Trade Press","Princeton Digital Group","Unknown",NA,"geocoded",NA,"MCR7+WR Kayu Ara Pasong, Johor, Malaysia",NA,NA,NA,NA
"K2 Strategic Sedenak (Johor)","K2 Strategic",1.7,103.4,"Trade Press (NER extraction)",NA,NA,NA,NA,"physical_facility",1,"Malaysia","MYS","Asia","South-Eastern Asia","K2 Strategic Sedenak (Johor)",TRUE,FALSE,"Trade Press","K2 Strategic","Operational",2024,"manual_correction",NA,"P92X+2X Kayu Ara Pasong, Johor, Malaysia",NA,NA,NA,NA
"Open DC PE2 (Bayan Lepas, Penang)","Open DC",5.2966983,100.2894956,"Trade Press (NER extraction)",NA,NA,NA,NA,"physical_facility",1,"Malaysia","MYS","Asia","South-Eastern Asia","Open DC PE2 (Bayan Lepas, Penang)",TRUE,FALSE,"Trade Press","Open DC","Operational",2025,"geocoded",NA,"Plot 18 & 19, Medan Bayan Lepas, Bayan Lepas Industrial Park, 11900 Bayan Lepas, Pulau Pinang, Malaysia",NA,NA,NA,NA
"Empyrion Digital MY1 (Nusajaya, Johor)","Empyrion Digital",1.4343363,103.5996679,"Trade Press (NER extraction)",NA,NA,NA,NA,"physical_facility",1,"Malaysia","MYS","Asia","South-Eastern Asia","Empyrion Digital MY1 (Nusajaya, Johor)",TRUE,FALSE,"Trade Press","Empyrion Digital","Planned",2025,"geocoded",NA,"11, Jln Teknologi Perintis 1/2, Kampung Baharu, 81550 Gelang Patah, Johor Darul Ta'zim, Malaysia",NA,NA,NA,NA
"Bytedance (Johor)","Bytedance",1.9343998,103.3587288,"Trade Press (NER extraction)",NA,NA,NA,NA,"physical_facility",1,"Malaysia","MYS","Asia","South-Eastern Asia","Bytedance (Johor)",TRUE,FALSE,"Trade Press","Bytedance","Unknown",NA,"geocoded",NA,"W9M5+QF Renggam, Johor, Malaysia",NA,NA,NA,NA
"Google Elmina Business Park (Selangor)","Google",3.2266053,101.5221802,"Trade Press (NER extraction)",NA,NA,NA,NA,"physical_facility",1,"Malaysia","MYS","Asia","South-Eastern Asia","Google Elmina Business Park (Selangor)",TRUE,FALSE,"Trade Press","Google","Unknown",NA,"geocoded",NA,"6GGC+JV Sungai Buloh, Selangor, Malaysia",NA,NA,NA,NA
"Equinix KL1 (Cyberjaya)","Equinix",2.90443,101.6509691,"Manual Curation (public sources)",NA,NA,NA,NA,"physical_facility",1,"Malaysia","MYS","Asia","South-Eastern Asia","Equinix KL1 (Cyberjaya)",TRUE,FALSE,"Manual Curation","Equinix","Operational",2024,"geocoded",NA,NA,"Manual Curation (public sources)","900 cabinets, 2630 sqm; No 2 Jalan Cyber Point 4; opened 2024; Equinix press release",NA,NA
"Equinix JH1 (Iskandar Puteri, Johor)","Equinix",1.4327058,103.5981429,"Manual Curation (public sources)",NA,NA,NA,NA,"physical_facility",1,"Malaysia","MYS","Asia","South-Eastern Asia","Equinix JH1 (Iskandar Puteri, Johor)",TRUE,FALSE,"Manual Curation","Equinix","Operational",2024,"geocoded",NA,NA,"Manual Curation (public sources)","500 cabinets, 1800 sqm; Nusajaya Tech Park NTP; $40M investment; opened 2024; Equinix blog",NA,NA
"GDS Nusajaya NTP1 (Johor)","GDS / DayOne",1.4343363,103.5996679,"Manual Curation (public sources)",NA,NA,NA,NA,"physical_facility",1,"Malaysia","MYS","Asia","South-Eastern Asia","GDS Nusajaya NTP1 (Johor)",TRUE,FALSE,"Manual Curation","GDS / DayOne","Operational",2023,"geocoded",NA,NA,"Manual Curation (public sources)","Phase 1 building; 69.5MW total across NTP1-3; Nusajaya Tech Park; launched 2023; GDS press release",NA,NA
"GDS Nusajaya NTP2 (Johor)","GDS / DayOne",1.4353363,103.5996679,"Manual Curation (public sources)",NA,NA,NA,NA,"physical_facility",1,"Malaysia","MYS","Asia","South-Eastern Asia","GDS Nusajaya NTP2 (Johor)",TRUE,FALSE,"Manual Curation","GDS / DayOne","Operational",NA,"geocoded_with_campus_offset",NA,NA,"Manual Curation (public sources)","Phase 1 building; part of 69.5MW NTP campus; Nusajaya Tech Park; campus offset +0.001 lat; GDS press release",NA,NA
"GDS Nusajaya NTP3 (Johor)","GDS / DayOne",1.4363363,103.5996679,"Manual Curation (public sources)",NA,NA,NA,NA,"physical_facility",1,"Malaysia","MYS","Asia","South-Eastern Asia","GDS Nusajaya NTP3 (Johor)",TRUE,FALSE,"Manual Curation","GDS / DayOne","Operational",NA,"geocoded_with_campus_offset",NA,NA,"Manual Curation (public sources)","Phase 1 building; part of 69.5MW NTP campus; Nusajaya Tech Park; campus offset +0.002 lat; GDS press release",NA,NA
"GDS Kempas Lama (Johor)","GDS / DayOne",1.543196,103.6965002,"Manual Curation (public sources)",NA,NA,NA,NA,"physical_facility",1,"Malaysia","MYS","Asia","South-Eastern Asia","GDS Kempas Lama (Johor)",TRUE,FALSE,"Manual Curation","GDS / DayOne","Under Construction",NA,"geocoded",NA,NA,"Manual Curation (public sources)","New campus; Kempas Lama, Johor; Baxtel",NA,NA
"STT Cyberjaya DC.2","STT GDC / Basis Bay",2.921318,101.6559349,"Manual Curation (public sources)",NA,NA,NA,NA,"physical_facility",1,"Malaysia","MYS","Asia","South-Eastern Asia","STT Cyberjaya DC.2",TRUE,FALSE,"Manual Curation","STT GDC / Basis Bay","Under Construction",2023,"geocoded",NA,NA,"Manual Curation (public sources)","JV with Basis Bay; ~20MW across 2 buildings; LEED Gold target; STT GDC press release Nov 2023",NA,NA
"STT Johor 1 (Nusa Cemerlang)","STT GDC",1.445292,103.6037419,"Manual Curation (public sources)",NA,NA,NA,NA,"physical_facility",1,"Malaysia","MYS","Asia","South-Eastern Asia","STT Johor 1 (Nusa Cemerlang)",TRUE,FALSE,"Manual Curation","STT GDC","Under Construction",2025,"geocoded",NA,NA,"Manual Curation (public sources)","16MW first building; 22 acres, 120MW total campus; Nusa Cemerlang Industrial Park; groundbreaking Feb 2025; DCD",NA,NA
"VADS CBJ1 (Cyberjaya)","VADS (TM subsidiary)",2.9254198,101.6629305,"Manual Curation (public sources)",NA,NA,NA,NA,"physical_facility",1,"Malaysia","MYS","Asia","South-Eastern Asia","VADS CBJ1 (Cyberjaya)",TRUE,FALSE,"Manual Curation","VADS (TM subsidiary)","Operational",NA,"geocoded",NA,NA,"Manual Curation (public sources)","Lingkaran Usahawan 1 Timur; Tier 3; ISO 27001; datacentermap.com snippet",NA,NA
"VADS CBJ2 (Cyberjaya)","VADS (TM subsidiary)",2.917888,101.6456942,"Manual Curation (public sources)",NA,NA,NA,NA,"physical_facility",1,"Malaysia","MYS","Asia","South-Eastern Asia","VADS CBJ2 (Cyberjaya)",TRUE,FALSE,"Manual Curation","VADS (TM subsidiary)","Operational",NA,"geocoded",NA,NA,"Manual Curation (public sources)","Bangunan TM CBJ Unit 2, Jalan Lingkaran Fauna; datacentermap.com snippet",NA,NA
"VADS CBJ5 (Cyberjaya)","VADS (TM subsidiary)",2.9129573,101.6557385,"Manual Curation (public sources)",NA,NA,NA,NA,"physical_facility",1,"Malaysia","MYS","Asia","South-Eastern Asia","VADS CBJ5 (Cyberjaya)",TRUE,FALSE,"Manual Curation","VADS (TM subsidiary)","Operational",NA,"geocoded",NA,NA,"Manual Curation (public sources)","CSF Computer Exchange, 3552 Jalan Teknokrat 6, 3rd Floor; datacentermap.com snippet",NA,NA
"VADS CBJ6 (Cyberjaya)","VADS (TM subsidiary)",2.9171543,101.6619044,"Manual Curation (public sources)",NA,NA,NA,NA,"physical_facility",1,"Malaysia","MYS","Asia","South-Eastern Asia","VADS CBJ6 (Cyberjaya)",TRUE,FALSE,"Manual Curation","VADS (TM subsidiary)","Operational",NA,"geocoded",NA,NA,"Manual Curation (public sources)","CX2 Computer Exchange, 7118 Jalan Impact, 4th Floor; datacentermap.com snippet",NA,NA
"VADS CBJ8 (Cyberjaya)","VADS (TM subsidiary)",2.9045487,101.6517587,"Manual Curation (public sources)",NA,NA,NA,NA,"physical_facility",1,"Malaysia","MYS","Asia","South-Eastern Asia","VADS CBJ8 (Cyberjaya)",TRUE,FALSE,"Manual Curation","VADS (TM subsidiary)","Operational",NA,"geocoded",NA,NA,"Manual Curation (public sources)","MyTelehaus CJ1 Centre, No 1 Jalan Cyber Point 4, Level 3; datacentercatalog.com",NA,NA
"Keppel DC Johor 1 (Kulai)","Keppel Data Centres",1.6686,103.5224,"Manual Curation (public sources)",NA,NA,NA,NA,"physical_facility",1,"Malaysia","MYS","Asia","South-Eastern Asia","Keppel DC Johor 1 (Kulai)",TRUE,FALSE,"Manual Curation","Keppel Data Centres","Operational",NA,"manual_correction",NA,NA,"Manual Curation (public sources)","BTS for Microsoft Azure; Kulai area; Keppel-controlled; coords from XLSX (1.6686, 103.5224); Dgtl Infra",NA,NA
"STACK JHB01 (Johor Bahru)","STACK Infrastructure",1.4619442,103.6034602,"Manual Curation (public sources)",NA,NA,NA,NA,"physical_facility",1,"Malaysia","MYS","Asia","South-Eastern Asia","STACK JHB01 (Johor Bahru)",TRUE,FALSE,"Manual Curation","STACK Infrastructure","Under Construction",NA,"geocoded",NA,NA,"Manual Curation (public sources)","10.8 hectares; cloud and AI/ML workloads; Jalan Bioteknologi; datacentermap.com snippet",NA,NA
"Hitachi Sunway DC CX2 (Cyberjaya)","Hitachi Sunway",2.9173009,101.6620648,"Manual Curation (public sources)",NA,NA,NA,NA,"physical_facility",1,"Malaysia","MYS","Asia","South-Eastern Asia","Hitachi Sunway DC CX2 (Cyberjaya)",TRUE,FALSE,"Manual Curation","Hitachi Sunway","Operational",NA,"geocoded",NA,NA,"Manual Curation (public sources)","7118 CX2 Computer Exchange, Jalan Impact; includes former Jalan Teknologi 1 site; datacentermap.com snippet",NA,NA
"Hitachi Sunway DC Century Square (Cyberjaya)","Hitachi Sunway",2.9250521,101.661399,"Manual Curation (public sources)",NA,NA,NA,NA,"physical_facility",1,"Malaysia","MYS","Asia","South-Eastern Asia","Hitachi Sunway DC Century Square (Cyberjaya)",TRUE,FALSE,"Manual Curation","Hitachi Sunway","Operational",NA,"geocoded",NA,NA,"Manual Curation (public sources)","Block 2310, Jalan Usahawan, Century Square; datacentermap.com snippet",NA,NA
"NEXTDC KL1 (Kuala Lumpur)","NEXTDC",3.1319197,101.6840589,"Manual Curation (public sources)",NA,NA,NA,NA,"physical_facility",1,"Malaysia","MYS","Asia","South-Eastern Asia","NEXTDC KL1 (Kuala Lumpur)",TRUE,FALSE,"Manual Curation","NEXTDC","Planned",NA,"geocoded",NA,NA,"Manual Curation (public sources)","65MW colocation; announced; GlobeNewswire / Arizton report",NA,NA
"Microsoft Kulai (Johor)","Microsoft",1.6205686,103.5215847,"Manual Curation (public sources)",NA,NA,NA,NA,"physical_facility",1,"Malaysia","MYS","Asia","South-Eastern Asia","Microsoft Kulai (Johor)",TRUE,FALSE,"Manual Curation","Microsoft","Under Construction",NA,"geocoded",NA,NA,"Manual Curation (public sources)","Part of Azure Malaysia region; Kulai, Johor; XLSX reference",NA,NA
"Microsoft Nusa Cemerlang (Johor)","Microsoft",1.445292,103.6037419,"Manual Curation (public sources)",NA,NA,NA,NA,"physical_facility",1,"Malaysia","MYS","Asia","South-Eastern Asia","Microsoft Nusa Cemerlang (Johor)",TRUE,FALSE,"Manual Curation","Microsoft","Under Construction",NA,"geocoded",NA,NA,"Manual Curation (public sources)","Part of Azure Malaysia region; Nusa Cemerlang, Iskandar Puteri; XLSX reference",NA,NA
"Vantage KUL1 Campus (Cyberjaya)","Vantage Data Centers",2.9057,101.6511358,"Manual Curation (public sources)",NA,NA,NA,NA,"physical_facility",1,"Malaysia","MYS","Asia","South-Eastern Asia","Vantage KUL1 Campus (Cyberjaya)",TRUE,FALSE,"Manual Curation","Vantage Data Centers","Operational",NA,"geocoded",NA,NA,"Manual Curation (public sources)","31MW; 4 multi-story buildings; Persiaran APEC; WUE near zero; Vantage website",NA,NA
"Vantage KUL2 Campus (Cyberjaya)","Vantage Data Centers",2.9016945,101.6506784,"Manual Curation (public sources)",NA,NA,NA,NA,"physical_facility",1,"Malaysia","MYS","Asia","South-Eastern Asia","Vantage KUL2 Campus (Cyberjaya)",TRUE,FALSE,"Manual Curation","Vantage Data Centers","Under Construction",NA,"geocoded",NA,NA,"Manual Curation (public sources)","436MW planned; 52 acres; adjacent to KUL1; 10 structures; Vantage website",NA,NA
"YTL Johor Data Center 1 (Kulai)","YTL Data Center Holdings",1.6205686,103.5215847,"Manual Curation (public sources)",NA,NA,NA,NA,"physical_facility",1,"Malaysia","MYS","Asia","South-Eastern Asia","YTL Johor Data Center 1 (Kulai)",TRUE,FALSE,"Manual Curation","YTL Data Center Holdings","Operational",NA,"geocoded",NA,NA,"Manual Curation (public sources)","Part of 275-acre YTL Green Data Center Park; Kulai; FULCRUM analysis",NA,NA
"YTL Johor Data Center 2 (Kulai)","YTL Data Center Holdings",1.6215686,103.5215847,"Manual Curation (public sources)",NA,NA,NA,NA,"physical_facility",1,"Malaysia","MYS","Asia","South-Eastern Asia","YTL Johor Data Center 2 (Kulai)",TRUE,FALSE,"Manual Curation","YTL Data Center Holdings","Operational",NA,"geocoded_with_campus_offset",NA,NA,"Manual Curation (public sources)","Part of 275-acre YTL Green Data Center Park; Kulai; campus offset +0.001 lat; FULCRUM analysis",NA,NA
"YTL Johor Data Center 3 (Kulai)","YTL Data Center Holdings",1.6225686,103.5215847,"Manual Curation (public sources)",NA,NA,NA,NA,"physical_facility",1,"Malaysia","MYS","Asia","South-Eastern Asia","YTL Johor Data Center 3 (Kulai)",TRUE,FALSE,"Manual Curation","YTL Data Center Holdings","Operational",NA,"geocoded_with_campus_offset",NA,NA,"Manual Curation (public sources)","Part of 275-acre YTL Green Data Center Park; Kulai; campus offset +0.002 lat; FULCRUM analysis",NA,NA
"Basis Bay Glenmarie (Shah Alam)","Basis Bay",3.09065,101.5791543,"Manual Curation (public sources)",NA,NA,NA,NA,"physical_facility",1,"Malaysia","MYS","Asia","South-Eastern Asia","Basis Bay Glenmarie (Shah Alam)",TRUE,FALSE,"Manual Curation","Basis Bay","Operational",NA,"geocoded",NA,NA,"Manual Curation (public sources)","Glenmarie, Shah Alam; one of Malaysia's first carrier-neutral DCs; 27+ years; STT GDC JV announcement",NA,NA
"Basis Bay Cyberjaya","Basis Bay",2.9058489,101.6527141,"Manual Curation (public sources)",NA,NA,NA,NA,"physical_facility",1,"Malaysia","MYS","Asia","South-Eastern Asia","Basis Bay Cyberjaya",TRUE,FALSE,"Manual Curation","Basis Bay","Operational",NA,"geocoded",NA,NA,"Manual Curation (public sources)","Cyberjaya facility; Basis Bay; STT GDC JV announcement",NA,NA
"Princeton Digital JH1 Campus (Sedenak)","Princeton Digital Group",1.6925127,103.4147133,"Manual Curation (public sources)",NA,NA,NA,NA,"physical_facility",1,"Malaysia","MYS","Asia","South-Eastern Asia","Princeton Digital JH1 Campus (Sedenak)",TRUE,FALSE,"Manual Curation","Princeton Digital Group","Operational",NA,"geocoded",NA,NA,"Manual Curation (public sources)","700-acre Sedenak Tech Park campus; hyperscaler-focused; datacentermap.com snippet",NA,NA
"Shinsei Malaysia 1 (Labu, Negeri Sembilan)","Shinsei / Regal Orion",2.7386579,101.8207566,"Manual Curation (public sources)",NA,NA,NA,NA,"physical_facility",1,"Malaysia","MYS","Asia","South-Eastern Asia","Shinsei Malaysia 1 (Labu, Negeri Sembilan)",TRUE,FALSE,"Manual Curation","Shinsei / Regal Orion","Operational",NA,"geocoded",NA,NA,"Manual Curation (public sources)","Labu, Negeri Sembilan; also known as Regal Orion; single facility; datacentermap.com",NA,NA
"Open DC CJ1 (Cyberjaya)","Open DC",2.9045353,101.6517597,"Manual Curation (public sources)",NA,NA,NA,NA,"physical_facility",1,"Malaysia","MYS","Asia","South-Eastern Asia","Open DC CJ1 (Cyberjaya)",TRUE,FALSE,"Manual Curation","Open DC","Operational",NA,"geocoded",NA,NA,"Manual Curation (public sources)","Jalan Cyber Point 4, Cyber 8; Cyberjaya; datacentermap.com",NA,NA
"Open DC JB1 (Johor Bahru)","Open DC",1.4629805,103.7719136,"Manual Curation (public sources)",NA,NA,NA,NA,"physical_facility",1,"Malaysia","MYS","Asia","South-Eastern Asia","Open DC JB1 (Johor Bahru)",TRUE,FALSE,"Manual Curation","Open DC","Operational",NA,"geocoded",NA,NA,"Manual Curation (public sources)","Menara MSC Cyberport, No 5 Jalan Bukit Meldrum; Johor Bahru; datacentermap.com",NA,NA
"Infinaxis Cyberjaya 1","Infinaxis",2.9158979,101.655345,"Manual Curation (public sources)",NA,NA,NA,NA,"physical_facility",1,"Malaysia","MYS","Asia","South-Eastern Asia","Infinaxis Cyberjaya 1",TRUE,FALSE,"Manual Curation","Infinaxis","Operational",NA,"geocoded",NA,NA,"Manual Curation (public sources)","Multimedia Super Corridor; Tier III target; datacentermap.com snippet",NA,NA
"PLTPro CX2 (Cyberjaya)","PLTPro",2.9173478,101.6620513,"Manual Curation (public sources)",NA,NA,NA,NA,"physical_facility",1,"Malaysia","MYS","Asia","South-Eastern Asia","PLTPro CX2 (Cyberjaya)",TRUE,FALSE,"Manual Curation","PLTPro","Operational",NA,"geocoded",NA,NA,"Manual Curation (public sources)","CX2 Computer Exchange, West Wing; Cyberjaya; datacentermap.com snippet",NA,NA
"Edge Centres EC31 (Shah Alam)","Edge Centres",3.089453,101.58209,"Manual Curation (public sources)",NA,NA,NA,NA,"physical_facility",1,"Malaysia","MYS","Asia","South-Eastern Asia","Edge Centres EC31 (Shah Alam)",TRUE,FALSE,"Manual Curation","Edge Centres","Operational",2022,"geocoded",NA,NA,"Manual Curation (public sources)","Jalan Pengaturcara U1/51 Temasya Shah Alam; launched 2022; DCD; corrected from v5 audit",NA,NA
"JARING Bukit Jalil","Data Center Facility",3.046839,101.688963,"PeeringDB",NA,NA,NA,NA,"physical_facility",1,"Malaysia","MYS","Asia","South-Eastern Asia","JARING Bukit Jalil",TRUE,FALSE,"PeeringDB","Data Center Facility","Operational",NA,"source_native",NA,"Technology Park Malaysia, Kuala Lumpur, , 57000","PeeringDB","PeeringDB fac ID: 610; http://www.jaring.my/",NA,"610"
"CX5 / MY02 Cyberjaya Malaysia","Bridge Data Centres",2.914565,101.649916,"PeeringDB",NA,NA,NA,NA,"physical_facility",1,"Malaysia","MYS","Asia","South-Eastern Asia","CX5 / MY02 Cyberjaya Malaysia",TRUE,FALSE,"PeeringDB","Bridge Data Centres","Operational",NA,"source_native",NA,"MY02, Cyberjaya, Selangor, 63000","PeeringDB","PeeringDB fac ID: 4712; http://www.bridgedatacentres.com",NA,"4712"
"TM ONE, Plaza VADS","Telekom Malaysia Berhad (TM)",3.139446,101.630177,"PeeringDB",NA,NA,NA,NA,"physical_facility",1,"Malaysia","MYS","Asia","South-Eastern Asia","TM ONE, Plaza VADS",TRUE,FALSE,"PeeringDB","Telekom Malaysia Berhad (TM)","Operational",NA,"source_native",NA,"Plaza VADS, Kuala Lumpur, Kuala Lumpur, 60000","PeeringDB","PeeringDB fac ID: 5654; https://www.tmone.com.my",NA,"5654"
"TM ONE PG1, Penang","Telekom Malaysia Berhad (TM)",5.424515,100.325495,"PeeringDB",NA,NA,NA,NA,"physical_facility",1,"Malaysia","MYS","Asia","South-Eastern Asia","TM ONE PG1, Penang",TRUE,FALSE,"PeeringDB","Telekom Malaysia Berhad (TM)","Operational",NA,"source_native",NA,"39, Jalan Sultan Ahmad Shah, Georgetown, Penang, 10050","PeeringDB","PeeringDB fac ID: 5770; https://www.tmone.com.my",NA,"5770"
"ModernOne Data Solutions Sdn. Bhd.","ModernOne Data Solutions Sdn. Bhd.",2.977314,101.796223,"PeeringDB",NA,NA,NA,NA,"physical_facility",1,"Malaysia","MYS","Asia","South-Eastern Asia","ModernOne Data Solutions Sdn. Bhd.",TRUE,FALSE,"PeeringDB","ModernOne Data Solutions Sdn. Bhd.","Operational",NA,"source_native",NA,"No 93-2A, Jalan TKS 1,, Kajang, Selangor, 4000","PeeringDB","PeeringDB fac ID: 6018; http://www.nocser.net",NA,"6018"
"DANAWA DC, Kuching","Danawa Resources Sdn Bhd",1.51404,110.374811,"PeeringDB",NA,NA,NA,NA,"physical_facility",1,"Malaysia","MYS","Asia","South-Eastern Asia","DANAWA DC, Kuching",TRUE,FALSE,"PeeringDB","Danawa Resources Sdn Bhd","Operational",NA,"source_native",NA,"Setia Commercial Centre, Kuching, Sarawak, 93350","PeeringDB","PeeringDB fac ID: 6488; http://www.danawa.com.my",NA,"6488"
"SACOFA Kuching","SACOFA Sdn. Bhd.",1.553771,110.329429,"PeeringDB",NA,NA,NA,NA,"physical_facility",1,"Malaysia","MYS","Asia","South-Eastern Asia","SACOFA Kuching",TRUE,FALSE,"PeeringDB","SACOFA Sdn. Bhd.","Operational",NA,"source_native",NA,"Lot 367, Jalan Satok, Kuching, Sarawak, 93400","PeeringDB","PeeringDB fac ID: 7013; https://www.sacofa.com.my",NA,"7013"
"Open DC JB2 - Menara Ansar","OPEN DC SDN BHD",1.460311,103.76285,"PeeringDB",NA,NA,NA,NA,"physical_facility",1,"Malaysia","MYS","Asia","South-Eastern Asia","Open DC JB2 - Menara Ansar",TRUE,FALSE,"PeeringDB","OPEN DC SDN BHD","Operational",NA,"source_native",NA,"Menara Ansar, Johor Bahru, Johor, 80000","PeeringDB","PeeringDB fac ID: 11025; http://www.opendc.my",NA,"11025"
"SAFEHOUSE Data Centre","i-Tech Network Solutions Sdn Bhd",3.165702,101.653155,"PeeringDB",NA,NA,NA,NA,"physical_facility",1,"Malaysia","MYS","Asia","South-Eastern Asia","SAFEHOUSE Data Centre",TRUE,FALSE,"PeeringDB","i-Tech Network Solutions Sdn Bhd","Operational",NA,"source_native",NA,"Level 31, Menara 1MK, Mont' Kiara, Kuala Lumpur, 50480","PeeringDB","PeeringDB fac ID: 12537; https://www.safehouse.com.my",NA,"12537"
"Open DC PE1 - Suntech Penang Cybercity","OPEN DC SDN BHD",5.325826,100.286772,"PeeringDB",NA,NA,NA,NA,"physical_facility",1,"Malaysia","MYS","Asia","South-Eastern Asia","Open DC PE1 - Suntech Penang Cybercity",TRUE,FALSE,"PeeringDB","OPEN DC SDN BHD","Operational",NA,"source_native",NA,"Level 12B, Suntech @ Penang Cybercity, Penang, , 11950","PeeringDB","PeeringDB fac ID: 14325; https://www.opendc.my/data-centres/",NA,"14325"
"MY03","Bridge Data Centres",3.045559,101.693271,"PeeringDB",NA,NA,NA,NA,"physical_facility",1,"Malaysia","MYS","Asia","South-Eastern Asia","MY03",TRUE,FALSE,"PeeringDB","Bridge Data Centres","Operational",NA,"source_native",NA,"No.11,, Kuala Lumpur, Kuala Lumpur, 57000","PeeringDB","PeeringDB fac ID: 15718; https://www.bridgedatacentres.com",NA,"15718"
